
// On power-up, device puts out NMEA messages at 9600 BAUD (looks like junk at 57600)
 0x00 0x00 0x00
 0xe0 0x00 0xe0 0x00 0xe0 0xe0 0x00 0x00 0xe0 0xe0 0xe0 0xe0 0x00 0xe0 0xe0 0x00 0xe0 0x00 0xe0 0x00 0x00 0xe0 0x00 0x00 0xe0 0xe0 0xe0 0x00 0xe0 0x00 0x00 0xe0 0x00 0x00
 0xe0 0x00 0x00 0xe0 0x00 0x00 0xe0 0x00 0x00 0xe0 0x00 0x00 0xe0 0x00 0x00 0xe0 0x00 0x00 0xe0 0x00 0x00 0xe0 0x00 0x00 0x00 0xe0 0x00 0xe0 0xe0 0x00
 0xe0 0xe0 0xe0 0x00 0xe0 0x00 0x00 0xe0 0xe0 0x00 0x00 0xe0 0x00 0x00 0x00 0x00 0xe0 0x00 0xe0 0x00 0xe0 0xe0 0x00 0xe0 0xe0 0xe0 0x00 0xe0 0xe0 0xe0 0xe0 0x00
 0xe0 0x00 0xe0 0x00 0x00 0xe0 0x00 0x00 0xe0 0x00 0x00 0xe0 0x00 0x00 0xe0 0x00 0x00 0xe0 0x00 0x00 0xe0 0x00 0x00 0xe0 0x00 0x00 0xe0 0x00 0x00 0x00
 0xe0 0x00 0xe0 0xe0 0x00 0xe0 0x00 0x00 0x00 0x00 0xe0 0xe0 0x00 0x00 0xe0 0x00 0x00 0x00 0x00 0xe0 0x00 0xe0 0x00 0xe0 0xe0 0xe0 0x00 0xe0 0xe0 0x00
 0xe0 0xe0 0x00 0xe0 0x00 0xe0 0x00 0x00 0xe0 0x00 0x00 0xe0 0x00 0x00 0xe0 0x00 0x00 0xe0 0x00 0x00 0xe0 0x00 0x00 0x00 0x00 0xe0 0x00 0x00
 0x00 0x00 0x00 0x00 0xe0 0x00 0xe0 0x00 0x00 0xe0 0x00 0x00 0x00 0xe0 0x00 0xe0 0x00 0x00 0xe0 0x00 0x00 0x00 0xe0 0x00 0x00 0xe0 0x00 0x00
 0xe0 0x00 0x00 0xe0 0x00 0x00 0xe0 0x00 0x00 0xe0 0x00 0x00 0xe0 0xe0 0x00 0x00 0xe0 0x00 0x00 0x00 0xe0 0xe0 0x00 0x00 0xe0 0x00 0x00 0x00 0x00
 0xe0 0x00 0xe0 0x00 0xe0 0xe0 0xe0 0x00 0xe0 0xe0 0x00 0xe0 0xe0 0xe0 0x00 0xe0 0x00 0xe0 0x00 0xe0 0x00 0xe0 0x00 0xe0 0x00 0xe0 0x00 0x00 0x00 0xe0 0x00
 0x00 0xe0 0x00 0x00 0xe0 0x00 0x00 0xe0 0x00 0x00 0xe0 0x00 0x00 0xe0 0x00 0x00 0xe0 0x00 0x00 0xe0 0x00 0x00 0xe0 0x00 0x00 0xe0 0x00 0x00
 0xe0 0x00 0x00 0xe0 0x00 0x00 0xe0 0x00 0xe0 0x00 0x00 0xe0 0x00 0x00 0x00 0xe0 0x00 0xe0 0x00 0x00 0xe0 0x00 0x00 0x00 0xe0 0x00 0xe0 0x00 0x00
 0xe0 0x00 0x00 0x00 0xe0 0x00 0xe0 0x00 0x00 0xe0 0x00 0x00 0x00 0xe0 0x00 0xe0 0x00 0x00 0xe0 0x00 0x00 0x00 0xe0 0x00 0xe0 0x00 0x00 0xe0 0x00 0x00 0x00
 0xe0 0xe0 0x00 0xe0 0x00 0x00 0x00 0x00 0xe0 0xe0 0x00 0x00 0xe0 0x00 0x00 0x00 0x00 0xe0 0x00 0xe0 0x00 0xe0 0xe0 0xe0 0x00 0xe0 0xe0 0x00 0xe0
 0xe0 0x00 0xe0 0xe0 0xe0 0x00 0xe0 0x00 0x00 0x00 0x00 0x00 0xe0 0x00 0xe0 0x00 0x00 0x00 0xe0 0x00 0x00 0x00 0xe0 0xe0 0xe0 0x00 0x00 0xe0 0x00 0x00
 0x00 0xe0 0x00 0x00 0x00 0xe0 0x00 0x00 0xe0 0x00 0x00 0xe0 0x00 0x00 0x00 0x00 0x00 0x00 0x00 0xe0 0x00 0x00 0x00 0x00 0x00 0x00
 0xe0 0x00 0x00 0xe0 0x00 0x00 0xe0 0x00 0xe0 0x00 0x00 0x00 0x00 0x00 0xe0 0x00 0xe0 0x00 0x00 0xe0 0x00 0x00 0x00 0xe0 0x00 0x00 0xe0 0x00
 0x00 0xe0 0x00 0x00 0x00 0x00 0x00 0x00 0x00 0xe0 0x00 0xe0 0x00 0x00 0x00 0x00 0x00 0x00 0xe0 0x00 0x00 0xe0 0x00 0x00 0xe0 0x00 0xe0 0x00 0x00 0xe0 0x00
 0x00 0x00 0xe0 0xe0 0x00 0xe0 0xe0 0x00 0xe0 0xe0 0x00 0xe0 0xe0 0xe0 0x00 0x00 0xe0 0x00 0x00 0x00 0x00 0xe0 0x00 0xe0 0x00 0xe0 0xe0 0xe0 0x00
 0xe0 0xe0 0x00 0xe0 0xe0 0x00 0xe0 0xe0 0xe0 0x00 0xe0 0x00 0x00 0x00 0x00 0x00 0xe0 0x00 0x00 0x00 0x00 0x00 0xe0 0x00 0x00 0x00 0xe0 0xe0 0xe0 0x00 0x00 0xe0 0x00
 0xe0 0x00 0x00 0xe0 0xe0 0xe0 0x00 0x00 0xe0 0x00 0x00 0xe0 0x00 0x00 0xe0 0x00 0x00 0x00 0xe0 0x00 0x00 0x00 0xe0 0xe0 0x00 0xe0 0xe0 0x00 0xe0 0x00
 0x00 0xe0 0xe0 0x00 0x00 0xe0 0x00 0x00 0x00 0x00 0xe0 0x00 0xe0 0x00 0xe0 0xe0 0xe0 0x00 0xe0 0x00 0x00 0xe0 0x00 0x00 0xe0 0x00 0xe0 0x00
 0x00 0xe0 0x00 0x00 0xe0 0x00 0x00 0xe0 0x00 0x00 0xe0 0x00 0x00 0xe0 0x00 0x00 0xe0 0xe0 0xe0 0x00 0xe0 0x00 0x00 0x00 0xe0 0x00 0xe0 0xe0 0x00 0x00 0xe0 0x00 0x00
 0xe0 0x00 0xe0 0xe0 0x00 0x00 0xe0 0x00

// ACK-ACK of request to set UART1 to UBX at 57600
 0xb5 0x62 0x05 0x01 0x02 0x00 0x06 0x00 0x0e 0x37

// Response to version request: "7.03 (45969)00040007"
 0xb5 0x62 0x0a 0x04 0x28 0x00 0x37 0x2e 0x30 0x33 0x20
 0x28 0x34 0x35 0x39 0x36 0x39 0x29 0x00 0x00 0x00 0x00 0x00 0x00 0x00 0x00 0x00 0x00 0x00 0x00 0x00 0x00 0x00 0x00 0x00 0x00 0x30 0x30 0x30 0x34 0x30 0x30 0x30 0x37 0x00 0x00 0x0b 0xb0

// ACK-ACK of request to set UART2
 0xb5 0x62 0x05 0x01 0x02 0x00 0x06 0x00 0x0e 0x37

// ACK-ACK of request to set USB
 0xb5 0x62 0x05 0x01 0x02 0x00 0x06 0x00 0x0e 0x37

// ACK-ACK of request to set antenna
 0xb5 0x62 0x05 0x01 0x02 0x00 0x06 0x13 0x21 0x4a

// ACK-ACK of request to set datum
 0xb5 0x62 0x05 0x00 0x02 0x00 0x06 0x06 0x13 0x38

// ACK-ACK of request to set measurement rate
 0xb5 0x62 0x05 0x01 0x02 0x00 0x06 0x08 0x16 0x3f

// ACK-ACK of request to set message configuration
 0xb5 0x62 0x05 0x01 0x02 0x00 0x06 0x02 0x10 0x39

// ACK-ACK of request to set time pulse
 0xb5 0x62 0x05 0x01 0x02 0x00 0x06 0x07 0x15 0x3e

// ACK-ACK of request to set SBAS
 0xb5 0x62 0x05 0x01 0x02 0x00 0x06 0x16 0x24 0x4d

// ACK-ACK of request to set message NAV-POSECEF rate
 0xb5 0x62 0x05 0x01 0x02 0x00 0x06 0x01 0x0f 0x38

// ACK-ACK of request to set message NAV-POSLLH rate
 0xb5 0x62 0x05 0x01 0x02 0x00 0x06 0x01 0x0f 0x38

// ACK-ACK of request to set message NAV-STATUS rate
 0xb5 0x62 0x05 0x01 0x02 0x00 0x06 0x01 0x0f 0x38

// ACK-ACK of request to set message NAV-DOP rate
 0xb5 0x62 0x05 0x01 0x02 0x00 0x06 0x01 0x0f 0x38

// ACK-ACK of request to set message NAV-SOL rate
 0xb5 0x62 0x05 0x01 0x02 0x00 0x06 0x01 0x0f 0x38

// First NAV-SOL message
 0xb5 0x62 0x01 0x06 0x34 0x00 0x58 0x1b 0x00 0x00 0x00 0x00 0x00 0x00 0x00 0x00 0x00 0x40 0xc4 0x43 0x04 0x26 0x00 0x00 0x00 0x00 0x00 0x00 0x00 0x00
 0xc0 0xdf 0xb6 0x26 0x00 0x00 0x00 0x00 0x00 0x00 0x00 0x00 0x00 0x00 0x00 0x00 0xd0 0x07 0x00 0x00 0x0f 0x27 0x02 0x00 0x22 0x67 0x01 0x00 0x33 0xfe 
// First NAV-POSLLH message
 0xb5 0x62 0x01 0x02 0x1c 0x00 0x58 0x1b 0x00 0x00 0x00 0x00 0x00 0x00 0x00 0x00 0x00 0x00 0x00 0x00 0x00 0x00 0x98 0xbd 0xff 0xff 0xff 0xff
 0xff 0xff 0x00 0x76 0x84 0xdf 0xba 0x7a 
// ACK-ACK of request to set message NAV-VELECEF rate
 0xb5 0x62 0x05 0x01 0x02 0x00 0x06 0x01 0x0f 0x38

// ACK-ACK of request to set message NAV-VELNED rate
 0xb5 0x62 0x05 0x01 0x02 0x00 0x06 0x01 0x0f 0x38

// ACK-ACK of request to set message NAV-TIMEGPS rate
 0xb5 0x62 0x05 0x01 0x02 0x00 0x06 0x01 0x0f 0x38

// ACK-ACK of request to set message NAV-TIMEUTC rate
 0xb5 0x62 0x05 0x01 0x02 0x00 0x06 0x01 0x0f 0x38

// ACK-ACK of request to set message NAV-CLOCK rate
 0xb5 0x62 0x05 0x01 0x02 0x00 0x06 0x01 0x0f 0x38

// ACK-ACK of request to set message NAV-SVINFO rate
 0xb5 0x62 0x05 0x01 0x02 0x00 0x06 0x01 0x0f 0x38

// NAV-SOL message
 0xb5 0x62 0x01 0x06 0x34 0x00 0x20 0x1c 0x00 0x00 0x00 0x00 0x00 0x00 0x00 0x00 0x00 0x40 0xc4 0x43 0x04 0x26 0x00 0x00 0x00 0x00 0x00 0x00 0x00 0x00 0xc0 0xdf 0xb6 0x26 0x00 0x00 0x00 0x00 0x00 0x00 0x00 0x00 0x00 0x00 0x00
 0x00 0xd0 0x07 0x00 0x00 0x0f 0x27 0x02 0x00 0x22 0x67 0x01 0x00 0xfc 0xd1 
// NAV-POSLLH message
 0xb5 0x62 0x01 0x02 0x1c 0x00 0x20 0x1c 0x00 0x00 0x00 0x00 0x00 0x00 0x00 0x00 0x00 0x00 0x00 0x00 0x00 0x00 0x98 0xbd 0xff 0xff 0xff 0xff 0xff 0xff 0x00 0x76 0x84 0xdf 0x83 0x75 
// NAV-VELNED message
 0xb5 0x62 0x01 0x12 0x24 0x00
 0x20 0x1c 0x00 0x00 0x00 0x00 0x00 0x00 0x00 0x00 0x00 0x00 0x00 0x00 0x00 0x00 0x00 0x00 0x00 0x00 0x00 0x00 0x00 0x00 0x00 0x00 0x00 0x00 0xd0 0x07 0x00 0x00 0x80 0xa8 0x12 0x01 0x85 0x60

// ACK-ACK of request to set message NAV-SBAS rate
 0xb5 0x62 0x05 0x01 0x02 0x00 0x06 0x01 0x0f 0x38

// ACK-ACK of request to set message RXM-SFRB rate
 0xb5 0x62 0x05 0x00 0x02 0x00 0x06 0x01 0x0e 0x33

// ACK-ACK of request to set message RXM-SVSI rate
 0xb5 0x62 0x05 0x01 0x02 0x00 0x06 0x01 0x0f 0x38

// ACK-ACK of request to set message MON-IO rate
 0xb5 0x62 0x05 0x01 0x02 0x00 0x06 0x01 0x0f 0x38

// NAV-SOL message
 0xb5 0x62 0x01 0x06 0x34 0x00 0xe8 0x1c 0x00 0x00 0x00 0x00 0x00 0x00 0x00 0x00 0x00 0x40 0xc4 0x43 0x04 0x26 0x00 0x00 0x00 0x00 0x00 0x00 0x00 0x00 0xc0 0xdf 0xb6 0x26 0x00 0x00 0x00 0x00 0x00 0x00 0x00 0x00 0x00 0x00 0x00 0x00 0xd0 0x07 0x00 0x00 0x0f 0x27
 0x02 0x00 0x22 0x67 0x01 0x00 0xc4 0x71 
// NAV-POSLLH message
 0xb5 0x62 0x01 0x02 0x1c 0x00 0xe8 0x1c 0x00 0x00 0x00 0x00 0x00 0x00 0x00 0x00 0x00 0x00 0x00 0x00 0x00 0x00 0x98 0xbd 0xff 0xff 0xff 0xff 0xff 0xff 0x00 0x76 0x84 0xdf 0x4b 0x55 
// NAV-VELNED message
 0xb5 0x62 0x01 0x12 0x24 0x00 0xe8 0x1c 0x00 0x00 0x00 0x00 0x00 0x00
 0x00 0x00 0x00 0x00 0x00 0x00 0x00 0x00 0x00 0x00 0x00 0x00 0x00 0x00 0x00 0x00 0x00 0x00 0x00 0x00 0xd0 0x07 0x00 0x00 0x80 0xa8 0x12 0x01 0x4d 0x80 
// ACK-ACK of request to set message MON-??? rate
 0xb5 0x62 0x05 0x01 0x02 0x00 0x06 0x01 0x0f 0x38

// ACK-ACK of request to set message MON-MSGPP rate
 0xb5 0x62 0x05 0x01 0x02 0x00 0x06 0x01 0x0f 0x38

// ACK-ACK of request to set message MON-RXBUF rate
 0xb5 0x62 0x05 0x01 0x02 0x00 0x06 0x01 0x0f 0x38

// ACK-ACK of request to set message MON-TXBUF rate
 0xb5 0x62 0x05 0x01 0x02 0x00 0x06 0x01 0x0f 0x38

// ACK-ACK of request to set message MON-HW rate
 0xb5 0x62 0x05 0x01 0x02 0x00 0x06 0x01 0x0f 0x38

// ACK-ACK of request to set message MON-??? rate
 0xb5 0x62 0x05 0x01 0x02 0x00 0x06 0x01 0x0f 0x38
// NAV-SOL message
 0xb5 0x62 0x01 0x06 0x34 0x00 0xb0 0x1d 0x00 0x00 0x00 0x00
 0x00 0x00 0x00 0x00 0x00 0x40 0xc4 0x43 0x04 0x26 0x00 0x00 0x00 0x00 0x00 0x00 0x00 0x00 0xc0 0xdf 0xb6 0x26 0x00 0x00 0x00 0x00 0x00 0x00 0x00 0x00 0x00 0x00 0x00 0x00 0xd0 0x07 0x00 0x00 0x0f 0x27 0x02 0x00 0x22 0x67 0x01 0x00 0x8d 0x44 
// NAV-POSLLH message
 0xb5 0x62 0x01 0x02 0x1c 0x00 0xb0 0x1d 0x00
 0x00 0x00 0x00 0x00 0x00 0x00 0x00 0x00 0x00 0x00 0x00 0x00 0x00 0x98 0xbd 0xff 0xff 0xff 0xff 0xff 0xff 0x00 0x76 0x84 0xdf 0x14 0x50 
// NAV-VELNED message
 0xb5 0x62 0x01 0x12 0x24 0x00 0xb0 0x1d 0x00 0x00 0x00 0x00 0x00 0x00 0x00 0x00 0x00 0x00 0x00 0x00 0x00 0x00 0x00 0x00 0x00 0x00 0x00 0x00 0x00 0x00 0x00
 0x00 0x00 0x00 0xd0 0x07 0x00 0x00 0x80 0xa8 0x12 0x01 0x16 0xc3 
// ACK-ACK of request to set message AID-REQ rate
 0xb5 0x62 0x05 0x01 0x02 0x00 0x06 0x01 0x0f 0x38

// ACK-ACK of request to set message AID-ALM rate
 0xb5 0x62 0x05 0x01 0x02 0x00 0x06 0x01 0x0f 0x38

// ACK-ACK of request to set message AID-EPH rate
 0xb5 0x62 0x05 0x01 0x02 0x00 0x06 0x01 0x0f 0x38

// ACK-ACK of request to set navigation engine settings
 0xb5 0x62 0x05 0x01 0x02 0x00 0x06 0x24 0x32 0x5b

// ACK-ACK of request to set navigation engine expert settings
 0xb5 0x62 0x05 0x01 0x02 0x00 0x06 0x23 0x31 0x5a

// NAV-SOL message
 0xb5 0x62 0x01 0x06 0x34 0x00 0x78 0x1e 0x00 0x00 0x00 0x00 0x00 0x00 0x00 0x00 0x00 0x40 0xc4 0x43 0x04 0x26 0x00 0x00 0x00 0x00 0x00 0x00 0x00 0x00 0xc0 0xdf 0xb6 0x26 0x00
 0x00 0x00 0x00 0x00 0x00 0x00 0x00 0x00 0x00 0x00 0x00 0xd2 0x07 0x00 0x00 0x0f 0x27 0x02 0x00 0x22 0x67 0x01 0x00 0x58 0x2f 
// NAV-POSLLH message
 0xb5 0x62 0x01 0x02 0x1c 0x00 0x78 0x1e 0x00 0x00 0x00 0x00 0x00 0x00 0x00 0x00 0x00 0x00 0x00 0x00 0x00 0x00 0x98 0xbd 0xff 0xff 0xff 0xff 0xff 0xff 0x00 0x76 0x84
 0xdf 0xdd 0x4b 
// NAV-VELNED message
 0xb5 0x62 0x01 0x12 0x24 0x00 0x78 0x1e 0x00 0x00 0x00 0x00 0x00 0x00 0x00 0x00 0x00 0x00 0x00 0x00 0x00 0x00 0x00 0x00 0x00 0x00 0x00 0x00 0x00 0x00 0x00 0x00 0x00 0x00 0xd2 0x07 0x00 0x00 0x80 0xa8 0x12 0x01 0xe1 0x16

// NAV-SOL message
 0xb5 0x62 0x01 0x06 0x34 0x00 0x40 0x1f 0x00 0x00 0x00 0x00 0x00 0x00 0x00 0x00 0x00 0x40
 0xc4 0x43 0x04 0x26 0x00 0x00 0x00 0x00 0x00 0x00 0x00 0x00 0xc0 0xdf 0xb6 0x26 0x00 0x00 0x00 0x00 0x00 0x00 0x00 0x00 0x00 0x00 0x00 0x00 0xd5 0x07 0x00 0x00 0x0f 0x27 0x02 0x00 0x22 0x67 0x01 0x00 0x24 0x26 
// NAV-POSLLH message
 0xb5 0x62 0x01 0x02 0x1c 0x00 0x40 0x1f 0x00 0x00 0x00 0x00 0x00 0x00 0x00 0x00
 0x00 0x00 0x00 0x00 0x00 0x00 0x98 0xbd 0xff 0xff 0xff 0xff 0xff 0xff 0x00 0x76 0x84 0xdf 0xa6 0x46 
// NAV-VELNED message
 0xb5 0x62 0x01 0x12 0x24 0x00 0x40 0x1f 0x00 0x00 0x00 0x00 0x00 0x00 0x00 0x00 0x00 0x00 0x00 0x00 0x00 0x00 0x00 0x00 0x00 0x00 0x00 0x00 0x00 0x00 0x00 0x00 0x00 0x00 0xd5 0x07 0x00 0x00
 0x80 0xa8 0x12 0x01 0xad 0x71

